,City,Lat,Lng,Max Temp,Humidity,Wind Speed,Cloudiness,Country,Date
0,Pandan Niog,6.2282,120.5631,83.14,70,4.07,17,PH,1619741475
1,Chui,-33.6971,-53.4616,56.86,77,3.09,0,UY,1619741475
2,Punta Arenas,-53.15,-70.9167,41.0,93,8.05,90,CL,1619741476
3,Puerto Ayora,-0.7393,-90.3518,76.62,80,9.04,46,EC,1619741476
4,Ancud,-41.8697,-73.8203,57.99,88,16.11,75,CL,1619741476
5,Khatanga,71.9667,102.5,31.55,93,7.43,100,RU,1619741477
6,Porto-Novo,6.4965,2.6036,82.4,83,4.61,20,BJ,1619741477
7,Silopi,37.2497,42.4694,68.54,40,5.48,43,TR,1619741478
8,Thompson,55.7435,-97.8558,33.8,40,14.97,20,CA,1619741478
9,Rikitea,-23.1203,-134.9692,76.44,67,10.69,89,PF,1619741479
10,Guerrero Negro,27.9769,-114.0611,70.12,52,17.74,0,MX,1619741479
11,Naze,28.3667,129.4833,69.8,78,13.8,0,JP,1619741480
12,Fortuna,40.5982,-124.1573,66.99,48,13.8,1,US,1619741480
13,Provideniya,64.3833,-173.3,33.8,64,2.24,20,RU,1619741480
14,Lüderitz,-26.6481,15.1594,56.32,77,22.5,0,NA,1619741481
15,Moose Factory,51.2585,-80.6094,48.2,66,11.5,90,CA,1619741481
16,Albany,42.6001,-73.9662,55.99,90,1.01,100,US,1619741185
17,Talnakh,69.4865,88.3972,30.15,92,4.05,98,RU,1619741226
18,Nanortalik,60.1432,-45.2371,37.22,84,9.95,9,GL,1619741482
19,Stjørdalshalsen,63.4681,10.9262,35.01,80,5.75,0,NO,1619741482
20,Hermanus,-34.4187,19.2345,57.0,74,5.99,46,ZA,1619741483
21,Port Alfred,-33.5906,26.891,63.39,73,13.04,100,ZA,1619741483
22,Busselton,-33.65,115.3333,48.99,100,1.01,81,AU,1619741484
23,Bluff,-46.6,168.3333,54.0,77,15.01,80,NZ,1619741484
24,Upernavik,72.7868,-56.1549,26.67,66,3.94,95,GL,1619741484
25,Mogadishu,2.0371,45.3438,82.24,77,9.17,88,SO,1619741485
26,Atuona,-9.8,-139.0333,79.52,69,5.12,3,PF,1619741485
27,Oistins,13.0667,-59.5333,77.0,65,11.5,20,BB,1619741460
28,Najrān,17.4924,44.1277,73.4,56,2.3,75,SA,1619741486
29,Inongo,-1.95,18.2667,72.16,97,4.07,100,CD,1619741486
30,Pauini,-7.7136,-66.9764,73.17,96,0.51,100,BR,1619741487
31,Chokurdakh,70.6333,147.9167,15.12,89,4.18,66,RU,1619741487
32,San Andrés,12.5847,-81.7006,82.4,69,5.75,20,CO,1619741488
33,Mil'kovo,54.7167,158.6167,37.27,91,1.28,100,RU,1619741488
34,Aykhal,66.0,111.5,24.82,99,7.25,100,RU,1619741488
35,Ahipara,-35.1667,173.1667,65.25,61,4.47,0,NZ,1619741489
36,Codrington,-38.2667,141.9667,64.4,51,9.69,0,AU,1619741489
37,Poum,-20.2333,164.0167,76.96,56,13.8,59,NC,1619741490
38,Dikson,73.5069,80.5464,0.86,98,6.91,94,RU,1619741490
39,Geraldton,-28.7667,114.6,64.4,82,8.05,90,AU,1619741491
40,Hithadhoo,-0.6,73.0833,83.53,72,7.0,98,MV,1619741491
41,Cocorit,27.5833,-109.9667,86.0,16,18.41,1,MX,1619741491
42,Barra Patuca,15.8,-84.2833,81.05,75,17.94,39,HN,1619741492
43,Ushuaia,-54.8,-68.3,41.0,65,4.61,40,AR,1619741279
44,Barrow,71.2906,-156.7887,21.2,79,8.05,90,US,1619741492
45,Kahului,20.8947,-156.47,82.4,69,18.41,40,US,1619741493
46,Saint-Philippe,-21.3585,55.7679,75.2,78,8.05,41,RE,1619741493
47,Port Elizabeth,-33.918,25.5701,57.0,94,1.01,95,ZA,1619741494
48,Hobart,-42.8794,147.3294,59.0,82,6.91,20,AU,1619741418
49,New Norfolk,-42.7826,147.0587,57.99,91,2.8,54,AU,1619741494
50,Shanghai,31.2222,121.4581,71.01,60,6.71,0,CN,1619741464
51,Tautira,-17.7333,-149.15,87.8,58,3.44,40,PF,1619741495
52,Okhotsk,59.3833,143.3,37.27,78,0.63,72,RU,1619741496
53,Avarua,-21.2078,-159.775,84.2,84,10.36,75,CK,1619741496
54,Vila Velha,-20.3297,-40.2925,71.6,83,11.5,75,BR,1619741497
55,Sinnamary,5.3833,-52.95,76.05,89,8.28,100,GF,1619741497
56,Lebu,-37.6167,-73.65,55.53,93,6.73,98,CL,1619741497
57,Lavrentiya,65.5833,-171.0,27.48,68,4.56,29,RU,1619741498
58,The Valley,18.217,-63.0578,79.0,78,9.22,20,AI,1619741262
59,Bethel,41.3712,-73.414,68.0,77,9.22,90,US,1619741498
60,Kupang,-10.1667,123.5833,79.79,81,6.98,56,ID,1619741499
61,Tegul'det,57.3064,88.1667,44.76,92,10.45,100,RU,1619741499
62,Torbay,47.6666,-52.7314,41.0,81,5.75,1,CA,1619741500
63,Matara,5.9485,80.5353,76.93,90,5.82,90,LK,1619741473
64,Province of Trapani,37.8333,12.6667,62.6,88,10.36,0,IT,1619741500
65,Inírida,3.8653,-67.9239,71.96,99,0.87,100,CO,1619741501
66,Rocha,-34.4833,-54.3333,55.67,83,3.89,0,UY,1619741501
67,Izhma,65.0083,53.9113,30.7,63,4.27,53,RU,1619741501
68,Saint Paul Harbor,57.79,-152.4072,41.0,81,6.91,90,US,1619741502
69,Saskylakh,71.9167,114.0833,31.06,91,8.46,100,RU,1619741502
70,Phuket,8.0,98.25,84.99,94,1.14,20,TH,1619741503
71,Lubumbashi,-11.6609,27.4794,65.61,85,2.82,89,CD,1619741503
72,Anadyr,64.75,177.4833,21.2,79,11.18,0,RU,1619741503
73,Cidreira,-30.1811,-50.2056,65.08,76,6.11,0,BR,1619741504
74,Arraial do Cabo,-22.9661,-42.0278,71.6,88,6.91,40,BR,1619741504
75,Saint-Pierre,-21.3393,55.4781,75.2,78,8.05,6,RE,1619741505
76,Mataura,-46.1927,168.8643,54.0,77,15.01,100,NZ,1619741505
77,Hilo,19.7297,-155.09,82.4,61,11.5,20,US,1619741327
78,Qaqortoq,60.7167,-46.0333,35.6,80,3.44,20,GL,1619741506
79,Conakry,9.538,-13.6773,80.6,83,6.29,20,GN,1619741506
80,Nikolskoye,59.7035,30.7861,32.0,69,1.99,0,RU,1619741507
81,Jalingo,8.8833,11.3667,80.02,65,3.38,71,NG,1619741507
82,Atambua,-9.1061,124.8925,78.04,74,2.62,46,ID,1619741508
83,Hasaki,35.7333,140.8333,68.0,49,9.22,20,JP,1619741508
84,Lorengau,-2.0226,147.2712,84.67,69,4.0,56,PG,1619741508
85,Bilibino,68.0546,166.4372,23.4,79,6.04,99,RU,1619741509
86,Amga,60.8953,131.9608,37.29,97,5.03,99,RU,1619741509
87,Mampong,7.0627,-1.4001,74.44,83,5.55,100,GH,1619741510
88,Khrebtovaya,56.7032,104.2494,33.03,70,2.77,46,RU,1619741510
89,Ekenäs,59.9736,23.4339,30.99,87,7.96,6,FI,1619741511
90,Carutapera,-1.195,-46.02,75.81,92,5.01,99,BR,1619741511
91,Cape Town,-33.9258,18.4232,60.01,82,8.05,20,ZA,1619741512
92,Yellowknife,62.456,-114.3525,28.99,59,13.8,75,CA,1619741512
93,Lázaro Cárdenas,17.9583,-102.2,80.38,71,11.23,85,MX,1619741512
94,Bathsheba,13.2167,-59.5167,77.0,65,11.5,20,BB,1619741513
95,Kirakira,-10.4544,161.9205,84.76,68,8.86,69,SB,1619741513
96,Jamestown,42.097,-79.2353,46.99,100,9.22,90,US,1619741313
97,Clyde,41.3042,-82.9752,53.01,90,10.69,100,US,1619741514
98,Nabire,-3.3667,135.4833,80.69,79,2.19,100,ID,1619741514
99,Fairbanks,64.8378,-147.7164,50.0,46,6.91,90,US,1619741515
100,Laguna,38.421,-121.4238,91.0,12,4.61,1,US,1619741515
101,Tondano,1.3038,124.9112,80.6,83,2.3,20,ID,1619741516
102,Alofi,-19.0595,-169.9187,84.2,79,5.75,75,NU,1619741516
103,Salalah,17.0151,54.0924,82.4,83,6.91,75,OM,1619741517
104,Kapaa,22.0752,-159.319,78.8,61,13.8,20,US,1619741517
105,Kédougou,12.5579,-12.1743,92.79,21,9.57,72,SN,1619741518
106,Marsabit,2.3284,37.9899,66.79,66,6.2,85,KE,1619741518
107,Healesville,-37.65,145.5167,61.0,91,4.0,10,AU,1619741518
108,Carnarvon,-24.8667,113.6333,71.6,83,12.66,19,AU,1619741519
109,Kruisfontein,-34.0033,24.7314,57.0,94,1.01,100,ZA,1619741519
110,Hamilton,39.1834,-84.5333,62.01,72,17.27,90,US,1619741430
111,Bredasdorp,-34.5322,20.0403,48.2,87,2.3,74,ZA,1619741520
112,Mbanza-Ngungu,-5.25,14.8667,69.17,97,0.78,98,CD,1619741520
113,Mahébourg,-20.4081,57.7,77.0,83,10.36,75,MU,1619741520
114,Parga,39.2831,20.3964,60.8,88,3.44,0,GR,1619741521
115,Inhambane,-23.865,35.3833,73.06,79,7.87,0,MZ,1619741521
116,Vaini,-21.2,-175.2,75.2,100,8.05,90,TO,1619741522
117,Drumheller,51.4617,-112.7101,71.6,26,8.05,88,CA,1619741522
118,Acaraú,-2.8856,-40.12,78.03,83,10.58,95,BR,1619741523
119,East London,-33.0153,27.9116,64.27,79,10.18,100,ZA,1619741303
120,Kitimat,54.0524,-128.6534,50.0,96,3.38,100,CA,1619741523
121,Fort Nelson,58.8053,-122.7002,48.2,57,3.44,75,CA,1619741524
122,Neiafu,-18.65,-173.9833,80.6,94,3.44,75,TO,1619741524
123,Kuril'sk,45.2333,147.8833,37.89,93,17.63,100,RU,1619741525
124,Cockburn Town,21.4612,-71.1419,78.8,73,16.11,40,TC,1619741525
125,Cap Malheureux,-19.9842,57.6142,73.99,93,1.99,23,MU,1619741526
126,Laas,46.6166,10.7002,46.99,100,4.61,90,IT,1619741526
127,Ilave,-16.0833,-69.6667,39.06,84,3.94,37,PE,1619741526
128,La Ronge,55.1001,-105.2842,44.6,23,3.44,20,CA,1619741527
129,Kulu,39.0951,33.0799,63.43,41,11.81,78,TR,1619741527
130,Rock Sound,24.9,-76.2,77.43,69,12.84,12,BS,1619741528
131,Lawrenceburg,38.0373,-84.8966,64.99,88,8.05,90,US,1619741528
132,Drochtersen,53.7102,9.3846,44.01,91,1.01,100,DE,1619741529
133,Klaksvík,62.2266,-6.589,37.4,60,8.05,90,FO,1619741529
134,Vila Franca do Campo,37.7167,-25.4333,53.6,71,5.75,20,PT,1619741245
135,Rajo Khanani,24.9841,68.8536,80.13,73,6.93,71,PK,1619741530
136,Korla,41.7597,86.1469,67.95,18,4.79,0,CN,1619741530
137,Butaritari,3.0707,172.7902,83.73,74,13.87,100,KI,1619741531
138,Mount Gambier,-37.8333,140.7667,53.6,94,8.05,0,AU,1619741531
139,Tual,-5.6667,132.75,82.67,72,5.82,100,ID,1619741532
140,Namatanai,-3.6667,152.4333,84.78,67,2.86,79,PG,1619741532
141,Port-Gentil,-0.7193,8.7815,78.8,89,2.3,75,GA,1619741533
142,San Patricio,28.017,-97.5169,82.99,83,9.22,40,US,1619741533
143,São Filipe,14.8961,-24.4956,72.77,77,7.56,51,CV,1619741533
144,São João da Barra,-21.6403,-41.0511,69.3,83,11.92,28,BR,1619741534
145,Ust-Kuyga,70.0167,135.6,26.33,89,4.47,90,RU,1619741534
146,Puerto Baquerizo Moreno,-0.9,-89.6,77.0,83,14.97,40,EC,1619741535
147,Tuktoyaktuk,69.4541,-133.0374,28.4,69,13.8,1,CA,1619741535
148,San Rafael,-34.6177,-68.3301,66.0,46,9.17,0,AR,1619741393
149,General Roca,-39.0333,-67.5833,60.8,94,4.52,0,AR,1619741536
150,Tura,25.5198,90.2201,77.18,41,3.94,4,IN,1619741536
151,Morant Bay,17.8815,-76.4093,82.4,74,23.02,20,JM,1619741537
152,Tutóia,-2.7619,-42.2744,76.93,87,8.68,97,BR,1619741537
153,Tynda,55.1667,124.7167,32.72,90,4.59,100,RU,1619741537
154,Dunedin,-45.8742,170.5036,53.01,90,15.99,100,NZ,1619741294
155,Sakakah,29.9697,40.2064,71.6,16,4.61,0,SA,1619741538
156,Taoudenni,22.6783,-3.9836,90.55,21,22.91,72,ML,1619741538
157,Alice Springs,-23.7,133.8833,60.8,33,9.26,0,AU,1619741539
158,Pangnirtung,66.1451,-65.7125,35.24,84,2.59,100,CA,1619741539
159,Farafangana,-22.8167,47.8333,72.01,90,4.7,40,MG,1619741540
160,Ullapool,57.8987,-5.1604,37.0,60,3.0,33,GB,1619741540
161,Aklavik,68.2191,-135.0107,39.2,41,5.75,63,CA,1619741541
162,Ixtapa,20.7,-105.2,80.6,74,13.8,1,MX,1619741541
163,Kwekwe,-18.9281,29.8149,62.74,65,4.52,30,ZW,1619741541
164,Boundiali,9.5217,-6.4869,82.47,57,6.78,54,CI,1619741542
165,Bilma,18.6853,12.9164,85.57,7,9.69,0,NE,1619741542
166,Petropavlovsk-Kamchatskiy,53.0452,158.6483,46.4,61,4.47,20,RU,1619741543
167,Havre-St-Pierre,50.2334,-63.5986,39.2,87,5.75,90,CA,1619741543
168,Qaanaaq,77.484,-69.3632,26.89,66,8.93,95,GL,1619741544
169,Krasnosel'kup,65.7,82.4667,30.96,94,17.52,99,RU,1619741544
170,Bandarbeyla,9.4942,50.8122,82.71,77,4.14,54,SO,1619741545
171,Zuwārah,32.9312,12.082,74.98,48,8.1,34,LY,1619741545
172,Banda Aceh,5.5577,95.3222,80.02,79,2.75,87,ID,1619741545
173,Olden,61.8364,6.8064,30.99,86,1.01,10,NO,1619741546
174,Severo-Kuril'sk,50.6789,156.125,38.1,83,5.99,33,RU,1619741546
175,Esperance,-33.8667,121.9,57.2,100,10.36,90,AU,1619741547
176,Mana,5.6592,-53.7767,75.94,90,9.1,62,GF,1619741547
177,Pevek,69.7008,170.3133,20.21,89,7.7,100,RU,1619741548
178,Shache,38.4167,77.2406,63.77,11,5.55,1,CN,1619741548
179,Bambous Virieux,-20.3428,57.7575,77.0,83,12.66,75,MU,1619741548
180,Mamburao,13.25,120.6667,83.97,63,1.59,64,PH,1619741549
181,Lagoa,39.05,-27.9833,56.77,62,6.55,100,PT,1619741549
182,Shahreza,32.0339,51.8794,61.25,45,2.24,54,IR,1619741550
183,Muros,42.7762,-9.0603,46.0,88,10.65,2,ES,1619741550
184,Northam,51.0333,-4.2167,37.99,82,2.77,33,GB,1619741550
185,Sur,22.5667,59.5289,85.73,40,4.99,95,OM,1619741551
186,Tasiilaq,65.6145,-37.6368,32.0,86,10.36,75,GL,1619741551
187,Sekoma,-24.4,23.8833,62.82,78,10.8,85,BW,1619741552
188,Yar-Sale,66.8333,70.8333,25.12,96,7.43,100,RU,1619741552
189,Thérmi,40.5471,23.0197,62.01,94,6.91,0,GR,1619741553
190,Mackay,-21.15,149.2,75.0,83,10.36,40,AU,1619741553
191,Guasdualito,7.2424,-70.7324,77.0,88,3.44,100,VE,1619741553
192,Porto Empedocle,37.2934,13.5264,62.04,62,6.02,20,IT,1619741554
193,Souillac,-20.5167,57.5167,77.0,83,12.66,75,MU,1619741554
194,Porto Franco,-6.3383,-47.3992,74.28,90,2.13,84,BR,1619741555
195,Rio Grande,-32.035,-52.0986,51.01,91,6.69,0,BR,1619741555
196,Kenai,60.5544,-151.2583,45.0,76,20.71,90,US,1619741469
197,Itaituba,-4.2761,-55.9836,73.96,96,0.31,86,BR,1619741556
198,Faya,18.3851,42.4509,62.6,77,5.59,40,SA,1619741556
199,Baykit,61.67,96.37,35.71,82,5.41,84,RU,1619741556
200,Kyaikkami,16.08,97.5675,78.82,79,6.13,100,MM,1619741557
201,Qena,26.1615,32.7183,80.6,21,5.17,0,EG,1619741557
202,Hong Kong,22.2855,114.1577,75.0,84,1.99,91,HK,1619741558
203,Canavieiras,-15.675,-38.9472,74.14,87,6.69,44,BR,1619741558
204,Presidencia Roque Sáenz Peña,-26.7852,-60.4388,61.0,78,5.88,0,AR,1619741558
205,Yulara,-25.2406,130.9889,60.8,36,8.05,4,AU,1619741559
206,Quatre Cocos,-20.2078,57.7625,77.0,83,10.36,75,MU,1619741559
207,Amnat Charoen,15.9167,104.75,73.83,82,6.58,100,TH,1619741559
208,Adrar,20.5022,-10.0711,80.87,29,12.1,38,MR,1619741560
209,Yārāda,17.65,83.2667,77.0,94,5.75,40,IN,1619741560
210,Suhum,6.0409,-0.45,82.4,83,9.22,20,GH,1619741561
211,Port Hardy,50.6996,-127.4199,53.6,87,5.75,90,CA,1619741561
212,Ilulissat,69.2167,-51.1,35.6,69,3.44,99,GL,1619741561
213,Morón,-34.6534,-58.6198,64.99,78,1.01,0,AR,1619741516
214,Jutaí,-5.1833,-68.9,72.77,98,2.42,89,BR,1619741562
215,Smalininkai,55.0735,22.5793,50.27,95,10.78,100,LT,1619741562
216,Iqaluit,63.7506,-68.5145,33.01,100,5.75,90,CA,1619741563
217,Cherskiy,68.75,161.3,21.88,87,12.57,100,RU,1619741564
218,Longyearbyen,78.2186,15.6401,19.4,68,11.5,40,SJ,1619741564
219,Lucea,18.451,-78.1736,78.01,88,8.05,20,JM,1619741565
220,Volta Redonda,-22.5231,-44.1042,69.8,83,3.44,75,BR,1619741565
221,Bismarck,46.8083,-100.7837,69.8,23,12.66,1,US,1619741514
222,Kirkuk,35.4681,44.3922,73.67,31,4.38,1,IQ,1619741566
223,Conceição do Araguaia,-8.2578,-49.2647,75.2,94,4.61,0,BR,1619741566
224,Kavieng,-2.5744,150.7967,84.47,69,6.62,57,PG,1619741566
225,Marshall,34.3834,-86.3333,73.99,85,8.28,98,US,1619741567
226,Bonavista,48.6499,-53.1147,41.0,87,3.44,88,CA,1619741567
227,Castro,-24.7911,-50.0119,51.66,94,5.44,6,BR,1619741568
228,Norman Wells,65.282,-126.8329,46.4,31,8.05,20,CA,1619741568
229,George Town,5.4112,100.3354,79.0,88,3.44,20,MY,1619741486
230,Ponta do Sol,32.6667,-17.1,55.99,72,1.01,47,PT,1619741568
231,Dingle,10.9995,122.6711,82.08,53,4.65,29,PH,1619741569
232,Ubari,26.5921,12.7805,85.1,11,10.18,2,LY,1619741569
233,Bam,29.106,58.357,76.06,28,5.59,88,IR,1619741570
234,Hervey Bay,-25.2986,152.8535,70.0,89,3.0,67,AU,1619741570
235,Mehamn,71.0357,27.8492,28.96,62,22.75,100,NO,1619741570
236,Ponta Delgada,37.7333,-25.6667,53.6,71,5.75,20,PT,1619741571
237,Asarganj,25.15,86.6833,82.29,46,4.76,3,IN,1619741571
238,San Cristobal,7.7669,-72.225,75.2,100,3.44,75,VE,1619741572
239,Sept-Îles,50.2001,-66.3821,45.0,65,3.44,75,CA,1619741572
240,Vao,-22.6667,167.4833,75.02,55,20.11,77,NC,1619741572
241,Morwell,-38.2333,146.4,61.0,81,1.66,21,AU,1619741573
242,Aksu,41.1231,80.2644,64.45,17,5.37,0,CN,1619741573
243,Vardø,70.3705,31.1107,30.79,90,18.68,100,NO,1619741574
244,Löningen,52.7333,7.7667,45.0,93,3.44,100,DE,1619741574
245,Vilya,55.2456,42.2089,37.29,94,5.59,68,RU,1619741574
246,Vysokogornyy,50.1167,139.15,35.76,99,2.01,100,RU,1619741575
247,Ust-Nera,64.5667,143.2,35.73,95,2.1,100,RU,1619741575
248,Tazmalt,36.3868,4.3989,58.59,68,4.0,45,DZ,1619741576
249,Lovozero,68.005,35.0117,24.26,92,7.2,100,RU,1619741576
250,Opuwo,-18.0607,13.84,65.7,52,3.78,19,NA,1619741577
251,Los Llanos de Aridane,28.6585,-17.9182,64.4,77,5.75,75,ES,1619741577
252,Port Lincoln,-34.7333,135.8667,68.47,44,11.25,28,AU,1619741577
253,Kiryat Gat,31.61,34.7642,64.4,77,4.61,0,IL,1619741463
254,Praia da Vitória,38.7333,-27.0667,60.8,63,7.54,20,PT,1619741578
255,Makakilo City,21.3469,-158.0858,82.4,54,8.05,90,US,1619741578
256,Paulínia,-22.7611,-47.1542,64.99,77,16.11,0,BR,1619741579
257,Cabo San Lucas,22.8909,-109.9124,79.0,36,13.8,1,MX,1619741358
258,Alghero,40.5589,8.3181,50.0,100,3.44,0,IT,1619741579
259,Paraná,-31.732,-60.5238,64.99,65,1.99,0,AR,1619741580
260,Waipawa,-41.4122,175.5153,64.4,68,18.41,37,NZ,1619741580
261,Roald,62.5833,6.1333,39.2,75,14.97,13,NO,1619741581
262,Rawson,-43.3002,-65.1023,63.9,58,3.94,99,AR,1619741427
263,Zhangaözen,43.3,52.8,54.28,68,9.28,79,KZ,1619741581
264,Luganville,-15.5333,167.1667,81.9,66,13.65,81,VU,1619741582
265,Clyde River,70.4692,-68.5914,24.8,100,14.97,90,CA,1619741582
266,Coyhaique,-45.5752,-72.0662,59.0,58,9.22,40,CL,1619741582
267,Qidong,31.8128,121.6561,71.01,64,1.99,1,CN,1619741583
268,Preston,53.7667,-2.7167,43.0,86,4.79,84,GB,1619741584
269,Nador,35.174,-2.9287,62.6,59,5.75,0,MA,1619741584
270,Kailāras,26.3167,77.6167,84.99,17,5.28,46,IN,1619741585
271,Cayenne,4.9333,-52.3333,78.01,94,4.09,0,GF,1619741585
272,Manavālakurichi,8.1333,77.3,84.2,89,3.44,75,IN,1619741585
273,Saint Anthony,45.0205,-93.218,66.2,25,18.41,20,US,1619741586
274,Mar del Plata,-38.0023,-57.5575,64.4,77,8.05,0,AR,1619741586
275,Uray,60.1247,64.7758,34.3,86,9.86,40,RU,1619741587
276,Ostrovnoy,68.0531,39.5131,24.17,85,13.49,94,RU,1619741587
277,Salta,-24.7859,-65.4117,57.99,82,4.61,20,AR,1619741428
278,Severo-Yeniseyskiy,60.3725,93.0408,33.71,91,10.29,100,RU,1619741588
279,Upata,8.0086,-62.3989,75.0,85,3.0,100,VE,1619741588
280,Kinkala,-4.3614,14.7644,77.0,94,2.3,20,CG,1619741589
281,Khuzhir,53.1939,107.3397,29.79,76,1.59,11,RU,1619741589
282,Burnie,-41.0667,145.9167,55.0,92,1.01,58,AU,1619741590
283,Panzhihua,26.5851,101.7128,66.11,50,1.81,13,CN,1619741590
284,Paamiut,61.994,-49.6678,36.14,86,0.69,2,GL,1619741590
285,Teacapan,22.55,-105.75,78.12,58,9.71,0,MX,1619741591
286,Saint George,37.1041,-113.5841,87.01,12,10.36,1,US,1619741591
287,Pesnica pri Mariboru,46.6069,15.6767,59.0,72,11.5,100,SI,1619741592
288,Kuytun,54.3419,101.5036,33.01,93,7.87,100,RU,1619741592
289,Carauari,-4.8828,-66.8958,73.35,98,2.08,92,BR,1619741592
290,Rudnogorsk,57.2639,103.7519,31.86,76,2.39,37,RU,1619741593
291,Tibati,6.4667,12.6333,66.06,90,1.59,99,CM,1619741593
292,Bengkulu,-3.8004,102.2655,74.95,92,4.83,95,ID,1619741594
293,Sal Rei,16.1833,-22.9167,71.6,73,12.66,40,CV,1619741594
294,Baruun-Urt,46.6806,113.2792,34.81,45,7.25,54,MN,1619741594
295,Khor,47.8861,134.9464,50.9,50,12.03,9,RU,1619741595
296,Nueva Loja,0.0847,-76.8828,71.85,97,2.46,86,EC,1619741595
297,Otradnoye,59.7775,30.8181,32.0,69,1.88,0,RU,1619741596
298,Barra de Tecoanapa,16.5167,-98.75,82.81,68,11.36,90,MX,1619741596
299,Praia,14.9215,-23.5087,71.6,73,19.57,40,CV,1619741597
300,Solwezi,-12.1688,26.3894,65.57,84,3.76,99,ZM,1619741597
301,Kaitangata,-46.2817,169.8464,51.42,90,6.91,100,NZ,1619741597
302,Oga,46.4631,10.347,53.01,100,2.3,90,IT,1619741598
303,Wenling,28.3669,121.36,70.0,60,6.85,0,CN,1619741598
304,Arlit,18.7369,7.3853,87.28,8,6.78,18,NE,1619741599
305,Mwense,-10.3845,28.698,66.42,93,2.95,91,ZM,1619741599
306,Faanui,-16.4833,-151.75,81.68,72,6.89,74,PF,1619741599
307,Dneprovskaya,45.6236,38.8081,57.0,89,5.01,71,RU,1619741600
308,Colesberg,-30.72,25.0972,52.5,77,12.95,100,ZA,1619741600
309,Loandjili,-4.7561,11.8578,80.6,89,8.05,75,CG,1619741601
310,Lingyuan,41.24,119.4011,48.58,15,3.85,48,CN,1619741601
311,Pervomayskiy,53.2485,40.2871,44.01,50,8.79,80,RU,1619741602
312,Kudahuvadhoo,2.6708,72.8944,82.98,72,3.6,11,MV,1619741602
313,Mchinji,-13.7984,32.8802,61.12,97,3.0,11,MW,1619741603
314,Kerman,30.2832,57.0788,68.07,34,5.75,99,IR,1619741603
315,Suez,29.9737,32.5263,74.41,32,9.22,2,EG,1619741604
316,Huarmey,-10.0681,-78.1522,68.68,80,11.01,1,PE,1619741604
317,Sotouboua,8.5667,0.9833,77.85,67,4.41,100,TG,1619741604
318,Swan Hill,-35.3378,143.5544,66.87,37,6.76,0,AU,1619741437
319,Tuatapere,-46.1333,167.6833,54.0,77,15.01,86,NZ,1619741605
320,Yumen,40.2833,97.2,62.91,14,5.75,45,CN,1619741605
321,Province of Mantua,45.1667,10.7833,57.99,95,3.0,82,IT,1619741606
322,Santa Rosa,14.3122,121.1114,86.0,74,5.75,40,PH,1619741606
323,Tiksi,71.6872,128.8694,31.51,81,6.33,93,RU,1619741607
324,Vestmannaeyjar,63.4427,-20.2734,43.5,80,6.96,98,IS,1619741607
325,Mayo,38.8876,-76.5119,80.6,50,13.18,40,US,1619741608
326,Mizque,-17.941,-65.3402,58.15,77,3.76,88,BO,1619741608
327,Neuquén,-38.9516,-68.0591,60.8,94,2.77,0,AR,1619741360
328,Katherine,-14.4667,132.2667,80.6,61,5.75,9,AU,1619741609
329,Lethem,3.3803,-59.7968,77.97,80,7.49,68,GY,1619741609
330,Linjiang,41.8069,126.9078,53.04,42,0.96,48,CN,1619741610
331,Erenhot,43.6475,111.9767,44.15,17,12.01,99,CN,1619741610
332,Kodinsk,58.6881,99.1844,35.6,76,4.09,25,RU,1619741610
333,Camacha,33.0833,-16.3333,60.8,67,10.36,40,PT,1619741611
334,Bandar,2.05,99.75,72.68,99,2.08,100,ID,1619741611
335,Nemuro,43.3236,145.575,39.2,100,13.8,75,JP,1619741612
336,Raahe,64.6833,24.4833,35.6,69,5.75,0,FI,1619741612
337,Mālpura,26.2833,75.3833,83.75,27,10.31,50,IN,1619741613
338,Thunder Bay,48.4001,-89.3168,57.2,35,12.66,75,CA,1619741518
339,Pimenta Bueno,-11.6725,-61.1936,72.99,81,5.14,100,BR,1619741613
340,Mount Isa,-20.7333,139.5,75.2,53,11.5,3,AU,1619741614
341,Omboué,-1.5746,9.2618,78.73,87,2.59,100,GA,1619741614
342,Dongsheng,39.8161,109.9776,45.16,52,30.0,49,CN,1619741615
343,Turka,49.1541,23.0297,51.01,81,7.85,86,UA,1619741615
344,Tlacotalpan,18.6167,-95.6667,91.0,50,13.91,49,MX,1619741615
345,Biloela,-24.4167,150.5,74.82,52,13.09,89,AU,1619741616
346,Halifax,44.6453,-63.5724,51.01,81,6.91,99,CA,1619741530
347,Roblin,51.23,-101.3565,46.35,31,12.01,65,CA,1619741616
348,Nizhniy Odes,63.6445,54.856,29.37,66,3.47,79,RU,1619741617
349,Leningradskiy,69.3833,178.4167,27.14,84,14.88,100,RU,1619741617
350,Jega,12.2175,4.3792,88.66,15,4.29,53,NG,1619741618
351,Caucayá,-0.1934,-74.7819,72.28,97,2.53,73,CO,1619741618
352,Japura,-0.3167,102.35,73.53,98,1.45,100,ID,1619741618
353,Yokadouma,3.5167,15.05,68.47,97,2.17,89,CM,1619741619
354,Manicoré,-5.8092,-61.3003,75.2,100,2.3,0,BR,1619741619
355,Montepuez,-13.1256,38.9997,67.95,98,2.86,43,MZ,1619741620
356,Bagnols-sur-Cèze,44.1599,4.6178,57.99,88,3.44,90,FR,1619741620
357,Gondang,-7.0109,111.3189,76.6,87,3.98,74,ID,1619741621
358,Trairi,-3.2778,-39.2689,76.53,86,6.02,100,BR,1619741345
359,Richards Bay,-28.783,32.0377,71.83,81,11.68,89,ZA,1619741621
360,Airai,-8.9266,125.4092,67.91,72,2.86,60,TL,1619741621
361,Río Gallegos,-51.6226,-69.2181,44.6,81,5.75,75,AR,1619741622
362,Shizunai-furukawachō,42.3339,142.3669,41.92,92,14.61,100,JP,1619741622
363,Shingū,33.7333,135.9833,60.8,77,5.75,0,JP,1619741623
364,Rundu,-17.9333,19.7667,64.74,59,1.41,12,NA,1619741623
365,Segovia,41.1667,-4.0,46.99,82,5.64,97,ES,1619741624
366,Berlevåg,70.8578,29.0864,29.28,81,28.95,100,NO,1619741624
367,Malakal,9.5334,31.6605,77.61,69,3.6,100,SS,1619741625
368,Senai,1.5937,103.6482,77.0,94,2.95,20,MY,1619741625
369,Kieta,-6.2167,155.6333,85.05,65,3.44,20,PG,1619741625
370,Bridgewater,44.3835,-64.5155,51.8,62,11.5,100,CA,1619741626
371,Bayan,46.0833,127.4,52.27,52,3.47,99,CN,1619741626
372,Wattegama,6.7989,81.4808,74.35,91,1.74,90,LK,1619741627
373,Lethbridge,49.7,-112.8186,68.0,34,18.41,75,CA,1619741627
374,Upington,-28.4478,21.2561,55.4,58,8.05,0,ZA,1619741628
375,Hay River,60.8156,-115.7999,42.8,33,12.66,75,CA,1619741628
376,Pinhão,-25.6956,-51.6597,50.61,69,4.43,0,BR,1619741629
377,Zagyvaszántó,47.777,19.6709,57.0,87,4.61,0,HU,1619741629
378,Qala,40.4418,50.1681,55.4,82,4.61,0,AZ,1619741630
379,High Prairie,55.4334,-116.4858,62.6,51,5.75,99,CA,1619741630
380,Nanchang,28.6833,115.8833,69.01,69,11.54,0,CN,1619741631
381,Butte,39.6499,-121.5677,89.6,18,8.05,1,US,1619741631
382,Nantucket,41.2835,-70.0995,50.0,93,10.36,90,US,1619741350
383,Shimoda,34.6667,138.95,68.0,63,13.8,20,JP,1619741632
384,Pombas,17.1503,-25.0201,71.6,73,19.57,40,CV,1619741632
385,Mirandola,44.8868,11.0662,57.99,80,1.99,76,IT,1619741632
386,Ribeira Grande,38.5167,-28.7,57.88,65,11.01,86,PT,1619741633
387,Kazanskoye,55.6448,69.235,39.74,70,8.14,2,RU,1619741633
388,Sioux Lookout,50.1001,-91.917,39.2,65,13.8,75,CA,1619741634
389,Antalaha,-14.9003,50.2788,74.57,86,7.11,9,MG,1619741634
390,Nome,64.5011,-165.4064,28.99,69,18.41,40,US,1619741634
391,Isla Mujeres,21.2311,-86.731,84.0,69,9.22,75,MX,1619741635
392,Umluj,25.0213,37.2685,84.45,42,11.18,37,SA,1619741635
393,Kimbe,-5.5502,150.1429,87.33,59,1.03,17,PG,1619741636
394,Trincomalee,8.5711,81.2335,79.61,82,5.03,66,LK,1619741636
395,Coahuayana Viejo,18.7333,-103.6833,80.6,57,11.5,90,MX,1619741637
396,Petites Anses,15.8501,-61.6442,77.0,83,5.75,75,GP,1619741637
397,Yangi Marg`ilon,40.4272,71.7189,68.0,72,2.62,0,UZ,1619741638
398,Marabba,12.35,32.1833,86.65,45,7.63,100,SD,1619741638
399,Novobiryusinskiy,56.9578,97.7076,36.43,93,8.28,100,RU,1619741638
400,Ukholovo,53.7929,40.4892,45.0,40,9.22,87,RU,1619741639
401,Meulaboh,4.1363,96.1285,77.0,85,3.91,84,ID,1619741639
402,Brae,60.3964,-1.353,37.4,87,10.36,79,GB,1619741640
403,Iracoubo,5.4802,-53.2011,76.01,90,8.86,100,GF,1619741640
404,Cururupu,-1.8283,-44.8683,74.64,90,2.28,100,BR,1619741641
405,Cairns,-16.9167,145.7667,81.0,73,10.36,7,AU,1619741641
406,Zelenoborskiy,66.845,32.3622,28.0,100,12.73,100,RU,1619741642
407,Bārdoli,21.1167,73.1167,84.72,56,3.11,92,IN,1619741642
408,Panabá,21.2833,-88.2667,87.28,39,16.17,2,MX,1619741643
409,Berdigestyakh,62.0989,126.6992,32.9,84,4.61,88,RU,1619741643
410,Karatau,43.1667,70.4667,66.09,30,4.07,6,KZ,1619741643
411,Burns Lake,54.2331,-125.7533,57.2,54,8.05,95,CA,1619741644
412,Adra,36.7496,-3.0206,61.0,72,6.91,0,ES,1619741644
413,Santa Maria,-29.6842,-53.8069,59.0,82,2.3,0,BR,1619741645
414,Taicheng,38.731,113.228,45.18,49,2.42,90,CN,1619741645
415,Gualeguay,-33.1416,-59.3097,58.12,74,5.79,0,AR,1619741646
416,Atar,20.5169,-13.0499,80.85,35,6.31,100,MR,1619741646
417,Wewak,-3.5534,143.6268,84.18,70,1.01,76,PG,1619741646
418,Willowmore,-33.2926,23.4895,51.37,76,4.68,100,ZA,1619741647
419,Ternate,0.8,127.4,82.63,72,2.62,100,ID,1619741647
420,Ugoofaaru,5.6667,73.0,82.81,73,4.97,73,MV,1619741648
421,Beira,-19.8436,34.8389,75.2,88,5.66,0,MZ,1619741648
422,San Vicente,-26.6167,-54.1333,54.46,55,3.04,0,AR,1619741648
423,Kattivākkam,13.2167,80.3167,84.99,83,2.3,20,IN,1619741649
424,Lompoc,34.6391,-120.4579,66.99,77,16.11,7,US,1619741649
425,Berbera,10.4396,45.0143,85.05,62,4.36,99,SO,1619741649
426,Kilinochchi,9.3961,80.3982,77.32,91,5.66,23,LK,1619741650
427,Mae Sot,16.7167,98.5667,75.2,100,1.81,75,TH,1619741650
428,Buala,-8.145,159.5921,82.63,74,5.37,98,SB,1619741650
429,Rochegda,62.8,43.25,31.59,81,4.63,100,RU,1619741651
430,Sosnovoborsk,56.1325,93.3589,39.2,81,4.47,0,RU,1619741651
431,Pacific Grove,36.6177,-121.9166,60.8,63,11.5,40,US,1619741652
432,Kundiawa,-6.0167,144.9667,72.46,70,3.51,84,PG,1619741652
433,Ugljevik,44.6636,19.0203,57.0,82,1.14,0,BA,1619741652
434,Bosobolo,4.1833,19.9,71.44,91,0.2,99,CD,1619741653
435,Along,28.1667,94.7667,70.09,54,1.81,39,IN,1619741653
436,Rāver,21.25,76.0333,84.06,30,4.59,28,IN,1619741402
437,Santa Fe,-31.6333,-60.7,64.99,65,1.99,0,AR,1619741356
438,San Jose,37.3394,-121.895,75.99,46,13.8,75,US,1619741492
439,Horta,38.5333,-28.6333,56.93,65,9.57,86,PT,1619741654
440,Capitão Poço,-1.7464,-47.0594,73.35,97,3.96,95,BR,1619741655
441,Giyani,-23.3025,30.7187,66.09,57,2.95,0,ZA,1619741655
442,Thinadhoo,0.5333,72.9333,83.41,71,6.08,60,MV,1619741655
443,Mishkino,55.3389,63.9175,39.33,77,10.36,9,RU,1619741656
444,Aktau,43.65,51.2,53.6,54,8.95,0,KZ,1619741656
445,Fare,-16.7,-151.0167,81.54,73,6.33,63,PF,1619741657
446,Labuhan,-6.8844,112.2051,78.69,83,6.51,46,ID,1619741657
447,Sirte,31.2089,16.5887,82.8,26,10.85,78,LY,1619741658
448,Nanhai,30.1282,111.7784,73.99,64,6.93,6,CN,1619741658
449,Sergach,55.5308,45.4661,36.73,78,6.26,65,RU,1619741658
450,Blairmore,49.6,-114.4353,68.0,39,14.97,99,CA,1619741659
451,Beloha,-25.1667,45.05,72.19,67,6.24,0,MG,1619741659
452,Khorramshahr,30.4397,48.1664,77.0,41,4.61,0,IR,1619741659
453,Dalby,-27.1833,151.2667,71.01,59,5.01,88,AU,1619741660
454,Los Andes,-32.8337,-70.5983,66.0,77,5.75,3,CL,1619741661
455,Luwuk,-0.9516,122.7875,82.49,70,2.42,87,ID,1619741661
456,Barrhead,55.7992,-4.3929,41.0,70,8.05,75,GB,1619741661
457,Bud,39.447,-86.1758,57.99,80,9.69,72,US,1619741662
458,Bhuj,23.2667,69.6667,76.1,85,4.12,0,IN,1619741662
459,Presidente Olegário,-18.4178,-46.4181,68.0,45,2.48,100,BR,1619741662
460,Belaya Gora,68.5333,146.4167,29.62,89,2.86,92,RU,1619741663
461,Gulbarga,17.3333,76.8333,84.74,36,6.55,39,IN,1619741663
462,Puerto Escondido,15.85,-97.0667,84.2,65,3.44,75,MX,1619741664
463,Neringa,55.3719,21.0647,48.2,93,8.95,75,LT,1619741664
464,Maoming,21.65,110.9,74.66,76,0.94,99,CN,1619741664
465,Pierre,44.3683,-100.351,75.0,28,6.91,1,US,1619741665
466,Masuguru,-11.3667,38.4167,70.41,98,1.39,68,TZ,1619741665
467,Inuvik,68.3499,-133.7218,41.0,41,5.75,72,CA,1619741666
468,Prokuplje,43.2342,21.5881,50.0,87,3.44,0,RS,1619741666
469,Storforshei,66.4043,14.5233,34.0,87,3.0,99,NO,1619741666
470,Itoman,26.1247,127.6694,69.8,73,4.61,20,JP,1619741667
471,Umm Hājar,13.2954,19.6966,83.91,8,10.92,54,TD,1619741413
472,Del Rio,29.3627,-100.8968,78.8,44,11.5,1,US,1619741668
473,Qrendi,35.8347,14.4583,63.0,100,4.61,0,MT,1619741668
474,Vohibinany,-17.35,49.0333,70.72,98,2.24,99,MG,1619741668
475,Litovko,49.2361,135.1742,45.12,63,11.65,36,RU,1619741669
476,Avera,33.194,-82.5271,77.0,61,7.83,94,US,1619741669
477,Bosaso,11.2842,49.1816,85.15,68,1.66,74,SO,1619741494
478,Saint-Gabriel,46.3001,-73.3824,62.6,31,12.66,100,CA,1619741670
479,Kutum,14.2,24.6667,74.48,15,4.09,33,SD,1619741671
480,Xingcheng,40.6167,120.7167,52.21,31,3.27,33,CN,1619741672
481,Kainantu,-6.2887,145.8655,66.6,78,0.98,64,PG,1619741672
482,Yuli,9.6989,10.2744,85.17,56,9.33,48,NG,1619741672
483,Kloulklubed,7.0419,134.2556,80.6,89,4.61,75,PW,1619741673
484,Seymchan,62.8833,152.4333,32.81,92,1.25,100,RU,1619741673
485,Matamoros,25.5333,-103.25,84.2,14,4.61,1,MX,1619741673
486,Kikwit,-5.041,18.8162,71.19,97,0.65,100,CD,1619741674
487,Coquimbo,-29.9533,-71.3436,55.4,88,6.91,0,CL,1619741596
488,Santoña,43.4439,-3.4576,53.01,87,2.3,90,ES,1619741674
489,Jesi,43.5288,13.2402,60.01,82,2.3,40,IT,1619741675
490,Raudeberg,61.9875,5.1352,39.99,77,17.2,8,NO,1619741675
491,Balsas,-7.5325,-46.0356,75.9,78,2.91,79,BR,1619741676
492,Phalaborwa,-23.943,31.1411,66.2,77,3.44,0,ZA,1619741676
493,Elizabeth City,36.2946,-76.2511,81.0,53,10.36,1,US,1619741478
494,Padang,-0.9492,100.3543,76.53,89,2.95,100,ID,1619741676
495,Kemijärvi,66.7131,27.4306,28.94,94,8.19,100,FI,1619741677
496,Mago,53.2514,140.1822,36.63,63,5.68,100,RU,1619741677
497,Sørland,67.667,12.6934,37.99,67,23.53,100,NO,1619741678
498,Beisfjord,68.3751,17.5988,32.0,86,10.36,90,NO,1619741678
499,Simao,22.7886,100.9748,64.8,88,1.61,100,CN,1619741679
500,Constitución,-35.3333,-72.4167,55.15,88,1.74,78,CL,1619741679
501,Hambantota,6.1241,81.1185,78.85,84,7.96,98,LK,1619741679
502,Caranavi,-15.8167,-67.55,60.1,84,1.34,90,BO,1619741680
503,Giohar,2.7809,45.5005,77.85,81,3.8,94,SO,1619741680
504,Saint-Augustin,51.226,-58.6502,41.95,80,5.32,100,CA,1619741681
505,Saldanha,-33.0117,17.9442,55.4,71,10.36,0,ZA,1619741681
506,Mahibadhoo,3.7833,72.9667,83.07,71,5.5,10,MV,1619741681
507,Yakuplu,40.9889,28.6758,53.6,82,4.61,0,TR,1619741682
508,Iralaya,15.0,-83.2333,86.0,74,8.05,20,HN,1619741682
509,Byron Bay,-28.65,153.6167,64.4,94,9.22,90,AU,1619741682
510,Viedma,-40.8135,-62.9967,69.87,44,16.33,91,AR,1619741683
511,Singaraja,-8.112,115.0882,81.09,74,2.59,11,ID,1619741683
512,Mitú,1.1983,-70.1733,70.97,99,1.19,94,CO,1619741684
513,Vytegra,61.0064,36.4481,29.3,93,4.16,67,RU,1619741684
514,La Providencia,28.7167,-111.5833,93.99,30,7.0,1,MX,1619741472
515,Yenagoa,4.9247,6.2642,77.27,91,4.14,100,NG,1619741685
516,Camalú,30.85,-116.0667,71.53,52,9.22,0,MX,1619741685
517,Luanda,-8.8368,13.2343,75.2,94,2.3,40,AO,1619741472
518,Dzilam González,21.2833,-88.9333,90.46,35,11.36,20,MX,1619741686
519,Sitka,57.0531,-135.33,46.4,81,10.36,90,US,1619741686
520,Batagay-Alyta,67.8006,130.4114,23.29,77,2.64,78,RU,1619741535
521,Mizdah,31.4451,12.9801,78.51,28,8.03,1,LY,1619741687
522,Profítis Ilías,35.2056,25.0999,80.6,22,11.5,0,GR,1619741687
523,Poindimié,-20.9333,165.3333,75.09,64,14.61,99,NC,1619741688
524,Sligo,54.2697,-8.4694,37.0,62,3.0,94,IE,1619741540
525,Kualakapuas,-3.0091,114.3876,78.8,89,4.61,57,ID,1619741603
526,Batticaloa,7.7102,81.6924,81.32,73,1.21,90,LK,1619741688
527,Bo Phloi,14.3236,99.5161,82.0,86,1.61,100,TH,1619741689
528,Morehead,37.2711,-87.1764,66.0,96,5.99,91,US,1619741689
529,College,64.8569,-147.8028,50.0,50,3.44,75,US,1619741690
530,São João Batista,-27.2761,-48.8494,62.01,95,1.01,19,BR,1619741690
531,Dhārchula,29.85,80.5333,61.05,48,8.63,11,IN,1619741691
532,Narsaq,60.9167,-46.05,35.6,80,3.44,20,GL,1619741691
533,Corpus Christi,27.8006,-97.3964,82.99,83,9.22,40,US,1619741691
534,Invermere,50.5167,-116.0354,51.37,85,1.19,100,CA,1619741692
535,Olafsvik,64.8945,-23.7142,40.62,76,2.62,100,IS,1619741692
536,Itarantim,-15.6597,-40.0656,70.59,89,5.5,91,BR,1619741693
537,Lodja,-3.4833,23.4333,70.68,97,2.44,95,CD,1619741693
538,Camajuaní,22.4833,-79.75,82.4,47,14.97,40,CU,1619741693
539,Aljezur,37.3191,-8.8033,52.66,75,6.08,55,PT,1619741694
540,Ipaussu,-23.0553,-49.6284,62.17,69,13.02,6,BR,1619741694
541,Shebalino,51.2917,85.6772,52.52,95,1.68,100,RU,1619741694
542,Novy Urengoy,66.0833,76.6333,28.98,95,10.4,100,RU,1619741695
543,Abalak,58.1286,68.5944,37.71,80,8.12,10,RU,1619741530
544,Mandalgovi,45.7625,106.2708,33.98,62,18.61,21,MN,1619741695
545,San Francisco,37.7749,-122.4194,64.99,59,23.02,75,US,1619741645
546,Moscow,55.7522,37.6156,45.0,75,6.71,0,RU,1619741530
547,Port Shepstone,-30.7414,30.455,66.85,88,17.45,100,ZA,1619741696
548,Reinosa,42.9996,-4.138,51.8,87,2.3,90,ES,1619741697
549,Rehoboth,-23.3167,17.0833,59.29,56,3.51,2,NA,1619741697
550,Rome,43.2128,-75.4557,55.4,94,2.8,90,US,1619741419
551,Jacareacanga,-6.2222,-57.7528,72.77,97,1.48,30,BR,1619741698
